[{"_id":2878044,"name":"Lichtenrade","country":"DE","coord":{"lon":13.40637,"lat":52.398441}},
{"_id":2892705,"name":"Karow","country":"DE","coord":{"lon":13.48117,"lat":52.609039}},
{"_id":2922336,"name":"Gatow","country":"DE","coord":{"lon":13.18285,"lat":52.483238}},
{"_id":2859887,"name":"Oberlind","country":"DE","coord":{"lon":11.18151,"lat":50.34124}},
{"_id":2880309,"name":"Laubach","country":"DE","coord":{"lon":8.42978,"lat":50.363201}},
{"_id":2950159,"name":"Berlin","country":"DE","coord":{"lon":13.41053,"lat":52.524368}},
{"_id":2649568,"name":"Feltwell","country":"GB","coord":{"lon":0.51945,"lat":52.485809}},
{"_id":2865861,"name":"Neueiche","country":"DE","coord":{"lon":13.58333,"lat":52.549999}},
{"_id":7292260,"name":"Claverley","country":"GB","coord":{"lon":-2.30606,"lat":52.531841}},
{"_id":2649556,"name":"Fenland District","country":"GB","coord":{"lon":0.08333,"lat":52.533329}},
{"_id":2633864,"name":"Wimblington","country":"GB","coord":{"lon":0.08416,"lat":52.509251}},
{"_id":2918169,"name":"Gramke","country":"DE","coord":{"lon":8.13333,"lat":52.533329}},
{"_id":6552567,"name":"Wathlingen","country":"DE","coord":{"lon":10.1315,"lat":52.542099}},
{"_id":2644486,"name":"Lincolnshire","country":"GB","coord":{"lon":-0.25,"lat":53.166672}},
{"_id":7290591,"name":"South Holland District","country":"GB","coord":{"lon":-0.01524,"lat":52.811588}},
{"_id":2635283,"name":"Tydd Saint Mary","country":"GB","coord":{"lon":0.13664,"lat":52.74585}},
{"_id":2949907,"name":"Bersede","country":"DE","coord":{"lon":7.2,"lat":52.75}},
{"_id":7290588,"name":"Boston District","country":"GB","coord":{"lon":-0.00233,"lat":52.974388}},
{"_id":2633501,"name":"Wrangle","country":"GB","coord":{"lon":0.12989,"lat":53.039349}},
{"_id":7290589,"name":"East Lindsey District","country":"GB","coord":{"lon":0.02194,"lat":53.267681}},
{"_id":2654326,"name":"Bunkers Hill","country":"GB","coord":{"lon":-0.1,"lat":53.066669}},
{"_id":3208196,"name":"Fährhof","country":"DE","coord":{"lon":9.23333,"lat":53.083328}},
{"_id":2656971,"name":"Ashby de la Launde","country":"GB","coord":{"lon":-0.42803,"lat":53.08223}},
{"_id":7290536,"name":"Cheshire East","country":"GB","coord":{"lon":-2.36245,"lat":53.167019}},
{"_id":7294577,"name":"Wistaston","country":"GB","coord":{"lon":-2.47956,"lat":53.085819}},
{"_id":2635806,"name":"Timberland","country":"GB","coord":{"lon":-0.32912,"lat":53.11203}},
{"_id":2901718,"name":"Hohenheide","country":"DE","coord":{"lon":12.33333,"lat":53.116669}},
{"_id":2910831,"name":"Hannover","country":"DE","coord":{"lon":9.73322,"lat":52.370522}},
{"_id":2874545,"name":"Magdeburg","country":"DE","coord":{"lon":11.66667,"lat":52.166672}},
{"_id":2849802,"name":"Ravensburg","country":"DE","coord":{"lon":9.61667,"lat":47.783329}},
{"_id":2806768,"name":"Wolfratshausen","country":"DE","coord":{"lon":11.42166,"lat":47.912891}},
{"_id":2921039,"name":"Germering","country":"DE","coord":{"lon":11.36667,"lat":48.133331}},
{"_id":2891524,"name":"Kerpen","country":"DE","coord":{"lon":6.7,"lat":50.866669}},
{"_id":2861733,"name":"Nottuln","country":"DE","coord":{"lon":7.35,"lat":51.933331}},
{"_id":2853924,"name":"Pfungstadt","country":"DE","coord":{"lon":8.60694,"lat":49.806389}},
{"_id":2817105,"name":"Vlotho","country":"DE","coord":{"lon":8.85996,"lat":52.165298}},
{"_id":2885679,"name":"Konstanz","country":"DE","coord":{"lon":9.17582,"lat":47.660332}},
{"_id":2895669,"name":"Iserlohn","country":"DE","coord":{"lon":7.7,"lat":51.366669}},
{"_id":2929567,"name":"Erlangen","country":"DE","coord":{"lon":11.00389,"lat":49.589722}},
{"_id":2826909,"name":"Stockach","country":"DE","coord":{"lon":9.01667,"lat":47.849998}},
{"_id":2938913,"name":"Darmstadt","country":"DE","coord":{"lon":8.64944,"lat":49.87056}},
{"_id":2909240,"name":"Hattersheim","country":"DE","coord":{"lon":8.46667,"lat":50.066669}},
{"_id":2821164,"name":"Trier","country":"DE","coord":{"lon":6.63935,"lat":49.75565}},
{"_id":2950978,"name":"Bensheim","country":"DE","coord":{"lon":8.61611,"lat":49.680279}},
{"_id":2959083,"name":"Ahrensburg","country":"DE","coord":{"lon":10.25,"lat":53.683331}},
{"_id":2807363,"name":"Witten","country":"DE","coord":{"lon":7.33333,"lat":51.433331}},
{"_id":2886946,"name":"Koblenz","country":"DE","coord":{"lon":7.6,"lat":50.349998}},
{"_id":2930182,"name":"Enger","country":"DE","coord":{"lon":8.56667,"lat":52.133331}},
{"_id":2913366,"name":"Gutersloh","country":"DE","coord":{"lon":8.38333,"lat":51.900002}},
{"_id":2927268,"name":"Fellbach","country":"DE","coord":{"lon":9.27697,"lat":48.80912}},
{"_id":2925259,"name":"Frechen","country":"DE","coord":{"lon":6.81667,"lat":50.916672}},
{"_id":2803461,"name":"Landkreis Hildesheim","country":"DE","coord":{"lon":9.965,"lat":52.126671}},
{"_id":2875881,"name":"Lorrach","country":"DE","coord":{"lon":7.66457,"lat":47.614971}},
{"_id":2841648,"name":"Sankt Augustin","country":"DE","coord":{"lon":7.18333,"lat":50.76667}},
{"_id":2857472,"name":"Olching","country":"DE","coord":{"lon":11.33333,"lat":48.200001}},
{"_id":2891832,"name":"Kelkheim (Taunus)","country":"DE","coord":{"lon":8.45,"lat":50.133331}},
{"_id":2950349,"name":"Bergisch Gladbach","country":"DE","coord":{"lon":7.13333,"lat":50.98333}},
{"_id":2953385,"name":"Bad Oldesloe","country":"DE","coord":{"lon":10.37417,"lat":53.811668}},
{"_id":2874225,"name":"Mainz","country":"DE","coord":{"lon":8.27111,"lat":50}},
{"_id":2809346,"name":"Wiesbaden","country":"DE","coord":{"lon":8.25,"lat":50.083328}},
{"_id":2904795,"name":"Hilden","country":"DE","coord":{"lon":6.93333,"lat":51.166672}},
{"_id":2864118,"name":"Neuss","country":"DE","coord":{"lon":6.68333,"lat":51.200001}},
{"_id":2873263,"name":"Marl","country":"DE","coord":{"lon":7.08333,"lat":51.650002}},
{"_id":2883754,"name":"Kronberg","country":"DE","coord":{"lon":8.51252,"lat":50.177448}},
{"_id":2953416,"name":"Bad Kreuznach","country":"DE","coord":{"lon":7.86667,"lat":49.833328}},
{"_id":2847736,"name":"Reutlingen","country":"DE","coord":{"lon":9.20427,"lat":48.49144}},
{"_id":2910278,"name":"Harsewinkel","country":"DE","coord":{"lon":8.23333,"lat":51.966671}},
{"_id":2857904,"name":"Oer-Erkenschwick","country":"DE","coord":{"lon":7.25,"lat":51.633331}},
{"_id":2891122,"name":"Kiel","country":"DE","coord":{"lon":10.13489,"lat":54.321331}},
{"_id":2899449,"name":"Homburg","country":"DE","coord":{"lon":7.33333,"lat":49.316669}},
{"_id":2826595,"name":"Stolberg","country":"DE","coord":{"lon":6.23333,"lat":50.76667}},
{"_id":2834372,"name":"Schwelm","country":"DE","coord":{"lon":7.28333,"lat":51.283329}},
{"_id":2929600,"name":"Erkrath","country":"DE","coord":{"lon":6.9,"lat":51.216671}},
{"_id":3272460,"name":"Morfelden-Walldorf","country":"DE","coord":{"lon":8.58361,"lat":49.99472}},
{"_id":2913761,"name":"Gummersbach","country":"DE","coord":{"lon":7.55,"lat":51.033329}},
{"_id":2833242,"name":"Seligenstadt","country":"DE","coord":{"lon":8.97394,"lat":50.043201}},
{"_id":2885408,"name":"Kornwestheim","country":"DE","coord":{"lon":9.18569,"lat":48.86158}},
{"_id":2865716,"name":"Neuenhagen","country":"DE","coord":{"lon":13.68914,"lat":52.52985}},
{"_id":2875457,"name":"Ludenscheid","country":"DE","coord":{"lon":7.61667,"lat":51.216671}},
{"_id":2955471,"name":"Arnsberg","country":"DE","coord":{"lon":8.08333,"lat":51.383331}},
{"_id":2862026,"name":"Norderstedt","country":"DE","coord":{"lon":10.01667,"lat":53.700001}},
{"_id":2926271,"name":"Flensburg","country":"DE","coord":{"lon":9.43333,"lat":54.783329}},
{"_id":2828050,"name":"Steinhagen","country":"DE","coord":{"lon":8.4,"lat":52}},
{"_id":2860410,"name":"Oberhausen","country":"DE","coord":{"lon":6.85,"lat":51.466671}},
{"_id":2833296,"name":"Selb","country":"DE","coord":{"lon":12.13054,"lat":50.170582}},
{"_id":2899601,"name":"Holzminden","country":"DE","coord":{"lon":9.4455,"lat":51.82798}},
{"_id":2953436,"name":"Bad Homburg vor der Hohe","country":"DE","coord":{"lon":8.61963,"lat":50.226669}},
{"_id":2866758,"name":"Neckarsulm","country":"DE","coord":{"lon":9.22611,"lat":49.19278}},
{"_id":2942634,"name":"Buchen","country":"DE","coord":{"lon":9.32306,"lat":49.523891}},
{"_id":2947739,"name":"Blieskastel","country":"DE","coord":{"lon":7.25617,"lat":49.23724}},
{"_id":2951654,"name":"Beckum","country":"DE","coord":{"lon":8.03333,"lat":51.75}},
{"_id":2871486,"name":"Metzingen","country":"DE","coord":{"lon":9.2833,"lat":48.536949}},
{"_id":2928615,"name":"Ettlingen","country":"DE","coord":{"lon":8.40763,"lat":48.940941}},
{"_id":2911271,"name":"Hameln","country":"DE","coord":{"lon":9.35623,"lat":52.10397}},
{"_id":2871675,"name":"Merzig","country":"DE","coord":{"lon":6.63333,"lat":49.450001}},
{"_id":2928874,"name":"Espelkamp","country":"DE","coord":{"lon":8.61667,"lat":52.383331}},
{"_id":2811644,"name":"Weiterstadt","country":"DE","coord":{"lon":8.59528,"lat":49.90778}},
{"_id":2827213,"name":"Stetten bei Hechingen","country":"DE","coord":{"lon":8.97978,"lat":48.345531}},
{"_id":2949511,"name":"Bad Bevensen","country":"DE","coord":{"lon":10.58333,"lat":53.083328}},
{"_id":2847890,"name":"Reusrath","country":"DE","coord":{"lon":6.95,"lat":51.099998}},
{"_id":2829686,"name":"Stahl","country":"DE","coord":{"lon":6.5,"lat":49.966671}},
{"_id":2904992,"name":"Heusenstamm","country":"DE","coord":{"lon":8.8,"lat":50.066669}},
{"_id":2932997,"name":"Eglhartinger Kolonie","country":"DE","coord":{"lon":11.86667,"lat":48.083328}},
{"_id":2910985,"name":"Handewittbusch","country":"DE","coord":{"lon":9.33333,"lat":54.76667}},
{"_id":2837837,"name":"Schmidt","country":"DE","coord":{"lon":6.4,"lat":50.666672}},
{"_id":6555412,"name":"Bempflingen","country":"DE","coord":{"lon":9.26853,"lat":48.571751}},
{"_id":2951124,"name":"Bempflingen","country":"DE","coord":{"lon":9.26834,"lat":48.571781}},
{"_id":2807846,"name":"Winsen","country":"DE","coord":{"lon":9.91667,"lat":52.666672}},
{"_id":6552653,"name":"Tostedt","country":"DE","coord":{"lon":9.7114,"lat":53.2771}},
{"_id":2947444,"name":"Boblingen","country":"DE","coord":{"lon":9.01667,"lat":48.683331}},
{"_id":2831397,"name":"Sommerfelde","country":"DE","coord":{"lon":13.86766,"lat":52.82362}},
{"_id":2933882,"name":"Eberswalde","country":"DE","coord":{"lon":13.81951,"lat":52.834919}},
{"_id":2864276,"name":"Neuruppin","country":"DE","coord":{"lon":12.80311,"lat":52.92815}},
{"_id":2902533,"name":"Hofheim am Taunus","country":"DE","coord":{"lon":8.45,"lat":50.083328}},
{"_id":2817599,"name":"Verden","country":"DE","coord":{"lon":9.23333,"lat":52.916672}},
{"_id":6552845,"name":"Oyten","country":"DE","coord":{"lon":9.0297,"lat":53.053799}},
{"_id":2953386,"name":"Bad Oeynhausen","country":"DE","coord":{"lon":8.8,"lat":52.200001}},
{"_id":2955273,"name":"Landkreis Aschaffenburg","country":"DE","coord":{"lon":9.23167,"lat":50.02639}},
{"_id":2888411,"name":"Kleinostheim","country":"DE","coord":{"lon":9.06667,"lat":50}},
{"_id":2843739,"name":"Rottenbach","country":"DE","coord":{"lon":11.26667,"lat":50.400002}},
{"_id":2854419,"name":"Pfaffengreuth","country":"DE","coord":{"lon":10.58333,"lat":49.299999}},
{"_id":2937959,"name":"Dessau","country":"DE","coord":{"lon":12.24555,"lat":51.838638}},
{"_id":2814510,"name":"Wallwitzhafen","country":"DE","coord":{"lon":12.25,"lat":51.833328}},
{"_id":2876218,"name":"Lohmar","country":"DE","coord":{"lon":7.21667,"lat":50.833328}},
{"_id":2922582,"name":"Garching bei Munchen","country":"DE","coord":{"lon":11.65,"lat":48.25}},
{"_id":2849156,"name":"Reichenbach\/Vogtland","country":"DE","coord":{"lon":12.3,"lat":50.616669}},
{"_id":2938663,"name":"Debring","country":"DE","coord":{"lon":10.85827,"lat":49.858898}},
{"_id":2904808,"name":"Hilchenbach","country":"DE","coord":{"lon":8.1,"lat":50.98333}},
{"_id":2878313,"name":"Leutenbach","country":"DE","coord":{"lon":9.39267,"lat":48.887909}},
{"_id":2959686,"name":"Achern","country":"DE","coord":{"lon":8.07607,"lat":48.631149}},
{"_id":2858763,"name":"Obertshausen","country":"DE","coord":{"lon":8.85,"lat":50.083328}},
{"_id":2919054,"name":"Goppingen","country":"DE","coord":{"lon":9.65488,"lat":48.702801}},
{"_id":2877088,"name":"Lingen","country":"DE","coord":{"lon":7.31667,"lat":52.51667}},
{"_id":2945756,"name":"Bottrop","country":"DE","coord":{"lon":6.91667,"lat":51.51667}},
{"_id":3247460,"name":"Landkreis Ahrweiler","country":"DE","coord":{"lon":7.04917,"lat":50.477219}},
{"_id":6553334,"name":"Rech","country":"DE","coord":{"lon":7.03333,"lat":50.516701}},
{"_id":2849754,"name":"Rech","country":"DE","coord":{"lon":7.03333,"lat":50.51667}},
{"_id":2945542,"name":"Brakel","country":"DE","coord":{"lon":9.18333,"lat":51.716671}},
{"_id":2926178,"name":"Flintbek","country":"DE","coord":{"lon":10.06667,"lat":54.25}},
{"_id":2887736,"name":"Klingenberg am Main","country":"DE","coord":{"lon":9.18611,"lat":49.784168}},
{"_id":2873352,"name":"Markkleeberg","country":"DE","coord":{"lon":12.4,"lat":51.283329}},
{"_id":2871079,"name":"Miltenberg","country":"DE","coord":{"lon":9.26444,"lat":49.703892}},
{"_id":2881980,"name":"Ladenburg","country":"DE","coord":{"lon":8.60694,"lat":49.474998}},
{"_id":2811159,"name":"Wenge","country":"DE","coord":{"lon":6.98333,"lat":51.683331}},
{"_id":2892786,"name":"Karlstadt","country":"DE","coord":{"lon":9.77222,"lat":49.960281}},
{"_id":2907585,"name":"Heiligenhaus","country":"DE","coord":{"lon":6.97106,"lat":51.326618}},
{"_id":2847645,"name":"Rheine","country":"DE","coord":{"lon":7.45,"lat":52.283329}},
{"_id":2944079,"name":"Brilon","country":"DE","coord":{"lon":8.58333,"lat":51.400002}},
{"_id":2906676,"name":"Helmstedt","country":"DE","coord":{"lon":11.00985,"lat":52.227901}},
{"_id":2933484,"name":"Eddersheim","country":"DE","coord":{"lon":8.46667,"lat":50.033329}},
{"_id":2869894,"name":"Monchengladbach","country":"DE","coord":{"lon":6.43333,"lat":51.200001}},
{"_id":2811292,"name":"Wendelstein","country":"DE","coord":{"lon":11.14833,"lat":49.353611}},
{"_id":2813216,"name":"Wehrheim","country":"DE","coord":{"lon":8.56667,"lat":50.299999}},
{"_id":2923305,"name":"Gaimersheim","country":"DE","coord":{"lon":11.36801,"lat":48.807049}},
{"_id":2927635,"name":"Feckelsberg","country":"DE","coord":{"lon":7.43333,"lat":51}},
{"_id":2874242,"name":"Main-Kinzig-Kreis","country":"DE","coord":{"lon":9.30472,"lat":50.25}},
{"_id":2930030,"name":"Ennigerloh","country":"DE","coord":{"lon":8.01667,"lat":51.833328}},
{"_id":2931574,"name":"Eisenach","country":"DE","coord":{"lon":10.31667,"lat":50.98333}},
{"_id":2891643,"name":"Kempen","country":"DE","coord":{"lon":6.41667,"lat":51.366669}},
{"_id":2811278,"name":"Wenden","country":"DE","coord":{"lon":7.86667,"lat":50.966671}},
{"_id":2878695,"name":"Leonberg","country":"DE","coord":{"lon":9.01667,"lat":48.799999}},
{"_id":2848245,"name":"Rendsburg","country":"DE","coord":{"lon":9.66667,"lat":54.299999}},
{"_id":2896514,"name":"Ilmenau","country":"DE","coord":{"lon":10.9,"lat":50.683331}},
{"_id":2940132,"name":"Chemnitz","country":"DE","coord":{"lon":12.91667,"lat":50.833328}},
{"_id":6559101,"name":"Hennef (Sieg), Stadt","country":"DE","coord":{"lon":7.28456,"lat":50.77565}},
{"_id":2940213,"name":"Celle","country":"DE","coord":{"lon":10.08047,"lat":52.622639}},
{"_id":2933959,"name":"Ebersbach an der Fils","country":"DE","coord":{"lon":9.5236,"lat":48.716}},
{"_id":2924803,"name":"Friedberg","country":"DE","coord":{"lon":10.98461,"lat":48.35693}},
{"_id":2917540,"name":"Grevenbroich","country":"DE","coord":{"lon":6.5827,"lat":51.091019}},
{"_id":2851782,"name":"Puchheim","country":"DE","coord":{"lon":11.35,"lat":48.150002}},
{"_id":2817724,"name":"Velbert","country":"DE","coord":{"lon":7.05,"lat":51.333328}},
{"_id":2920478,"name":"Gifhorn","country":"DE","coord":{"lon":10.55,"lat":52.48333}},
{"_id":2877648,"name":"Limburg an der Lahn","country":"DE","coord":{"lon":8.05,"lat":50.383331}},
{"_id":2874028,"name":"Malterdingen","country":"DE","coord":{"lon":7.8,"lat":48.166672}},
{"_id":2910675,"name":"Hard","country":"DE","coord":{"lon":11.11667,"lat":48.816669}},
{"_id":2945845,"name":"Bossee","country":"DE","coord":{"lon":9.9,"lat":54.283329}},
{"_id":2926120,"name":"Florsheim","country":"DE","coord":{"lon":8.43333,"lat":50.01667}},
{"_id":2831486,"name":"Soltau","country":"DE","coord":{"lon":9.83333,"lat":52.98333}},
{"_id":2917466,"name":"Gries","country":"DE","coord":{"lon":7.4,"lat":49.416672}},
{"_id":2853209,"name":"Plettenberg","country":"DE","coord":{"lon":7.88333,"lat":51.216671}},
{"_id":2953347,"name":"Bad Schwartau","country":"DE","coord":{"lon":10.69691,"lat":53.918869}},
{"_id":2885536,"name":"Korbach","country":"DE","coord":{"lon":8.873,"lat":51.275612}},
{"_id":2911007,"name":"Hanau am Main","country":"DE","coord":{"lon":8.91667,"lat":50.133331}},
{"_id":2805761,"name":"Wunstorf","country":"DE","coord":{"lon":9.41667,"lat":52.433331}},
{"_id":2925910,"name":"Forchheim","country":"DE","coord":{"lon":11.05877,"lat":49.717541}},
{"_id":2897385,"name":"Hungerberg","country":"DE","coord":{"lon":8.08333,"lat":48.533329}},
{"_id":2841874,"name":"Sandesneben","country":"DE","coord":{"lon":10.5,"lat":53.683331}},
{"_id":2954006,"name":"Aurich","country":"DE","coord":{"lon":7.48333,"lat":53.466671}},
{"_id":3220887,"name":"Landkreis Neu-Ulm","country":"DE","coord":{"lon":10.15222,"lat":48.306389}},
{"_id":6558414,"name":"Illertissen, Stadt","country":"DE","coord":{"lon":10.1026,"lat":48.222698}},
{"_id":2896546,"name":"Illertissen","country":"DE","coord":{"lon":10.10347,"lat":48.223358}},
{"_id":2842632,"name":"Saarlouis","country":"DE","coord":{"lon":6.75,"lat":49.316669}},
{"_id":2836203,"name":"Schramberg","country":"DE","coord":{"lon":8.38583,"lat":48.223991}},
{"_id":2880077,"name":"Laupheim","country":"DE","coord":{"lon":9.88333,"lat":48.23333}},
{"_id":2931414,"name":"Eislingen","country":"DE","coord":{"lon":9.70676,"lat":48.695148}},
{"_id":2857807,"name":"Offenbach","country":"DE","coord":{"lon":8.76667,"lat":50.099998}},
{"_id":3274259,"name":"Leingarten","country":"DE","coord":{"lon":9.11694,"lat":49.146389}},
{"_id":2839801,"name":"Schellnhausen","country":"DE","coord":{"lon":9.15,"lat":50.666672}},
{"_id":2931784,"name":"Markt Einersheim","country":"DE","coord":{"lon":10.3,"lat":49.683331}},
{"_id":2953439,"name":"Bad Hersfeld","country":"DE","coord":{"lon":9.7,"lat":50.866669}},
{"_id":2823590,"name":"Telgte","country":"DE","coord":{"lon":7.78333,"lat":51.98333}},
{"_id":2830582,"name":"Speyer","country":"DE","coord":{"lon":8.42778,"lat":49.32972}},
{"_id":2871736,"name":"Merseburg","country":"DE","coord":{"lon":12,"lat":51.366669}},
{"_id":6555423,"name":"Köngen","country":"DE","coord":{"lon":9.3691,"lat":48.681702}},
{"_id":2886008,"name":"Kongen","country":"DE","coord":{"lon":9.36667,"lat":48.683331}},
{"_id":2887835,"name":"Kleve","country":"DE","coord":{"lon":6.15,"lat":51.783329}},
{"_id":2820973,"name":"Trossingen","country":"DE","coord":{"lon":8.64409,"lat":48.076672}},
{"_id":2804034,"name":"Zirndorf","country":"DE","coord":{"lon":10.95414,"lat":49.442402}},
{"_id":2953395,"name":"Bad Nauheim","country":"DE","coord":{"lon":8.73859,"lat":50.364632}},
{"_id":2923362,"name":"Gaggenau","country":"DE","coord":{"lon":8.33333,"lat":48.799999}},
{"_id":2817324,"name":"Viernheim","country":"DE","coord":{"lon":8.57861,"lat":49.541672}},
{"_id":2946111,"name":"Bornheim","country":"DE","coord":{"lon":7,"lat":50.76667}},
{"_id":2879367,"name":"Lehrte","country":"DE","coord":{"lon":9.96667,"lat":52.383331}},
{"_id":2892080,"name":"Kaufbeuren","country":"DE","coord":{"lon":10.61667,"lat":47.883331}},
{"_id":2922230,"name":"Gauting","country":"DE","coord":{"lon":11.37703,"lat":48.069191}},
{"_id":2878840,"name":"Lengerich","country":"DE","coord":{"lon":7.86667,"lat":52.183331}},
{"_id":2946228,"name":"Borken","country":"DE","coord":{"lon":6.86667,"lat":51.849998}},
{"_id":2817674,"name":"Velten","country":"DE","coord":{"lon":13.18333,"lat":52.683331}},
{"_id":3249078,"name":"Kreis Stormarn","country":"DE","coord":{"lon":10.33111,"lat":53.764721}},
{"_id":6552286,"name":"Rehhorst","country":"DE","coord":{"lon":10.4667,"lat":53.883301}},
{"_id":2872375,"name":"Mehring","country":"DE","coord":{"lon":6.83333,"lat":49.799999}},
{"_id":2956710,"name":"Alzey","country":"DE","coord":{"lon":8.11611,"lat":49.751671}},
{"_id":2906595,"name":"Hemer","country":"DE","coord":{"lon":7.76667,"lat":51.383331}},
{"_id":2893311,"name":"Kamp","country":"DE","coord":{"lon":7.78333,"lat":50.933331}},
{"_id":3220978,"name":"Landkreis Offenbach","country":"DE","coord":{"lon":8.825,"lat":50.022221}},
{"_id":2933246,"name":"Egelsbach","country":"DE","coord":{"lon":8.67028,"lat":49.971111}},
{"_id":6555301,"name":"Sprendlingen","country":"DE","coord":{"lon":7.98333,"lat":49.866699}},
{"_id":3249066,"name":"Landkreis Neunkirchen","country":"DE","coord":{"lon":7.13056,"lat":49.37944}},
{"_id":2929865,"name":"Eppelborn","country":"DE","coord":{"lon":6.96667,"lat":49.400002}},
{"_id":2871668,"name":"Meschede","country":"DE","coord":{"lon":8.28333,"lat":51.349998}},
{"_id":2857455,"name":"Landkreis Oldenburg","country":"DE","coord":{"lon":8.36,"lat":53.03722}},
{"_id":2832495,"name":"Siegen","country":"DE","coord":{"lon":8.03333,"lat":50.866669}},
{"_id":2814853,"name":"Wald-Michelbach","country":"DE","coord":{"lon":8.83167,"lat":49.57}},
{"_id":2955159,"name":"Aschheim","country":"DE","coord":{"lon":11.71675,"lat":48.17112}},
{"_id":2876865,"name":"Lippstadt","country":"DE","coord":{"lon":8.35,"lat":51.666672}},
{"_id":2877021,"name":"Linnich","country":"DE","coord":{"lon":6.26667,"lat":50.98333}},
{"_id":6556243,"name":"Oberammergau","country":"DE","coord":{"lon":11.0652,"lat":47.597401}},
{"_id":2872126,"name":"Meitingen","country":"DE","coord":{"lon":10.85,"lat":48.549999}},
{"_id":2906331,"name":"Hennigsdorf","country":"DE","coord":{"lon":13.20419,"lat":52.635979}},
{"_id":2897715,"name":"Hummel","country":"DE","coord":{"lon":6.78333,"lat":50.466671}},
{"_id":2895630,"name":"Isselburg","country":"DE","coord":{"lon":6.46667,"lat":51.833328}},
{"_id":2812480,"name":"Weimar-Land","country":"DE","coord":{"lon":11.25,"lat":50.916672}},
{"_id":6550283,"name":"Schmiedehausen","country":"DE","coord":{"lon":11.6667,"lat":51.0667}},
{"_id":2835537,"name":"Schwabach","country":"DE","coord":{"lon":11.02556,"lat":49.32917}},
{"_id":6555396,"name":"Ehningen","country":"DE","coord":{"lon":8.94064,"lat":48.658821}},
{"_id":2826837,"name":"Stöcken","country":"DE","coord":{"lon":7.08333,"lat":51.183331}},
{"_id":2936213,"name":"Donnersbergkreis","country":"DE","coord":{"lon":7.91639,"lat":49.634441}},
{"_id":6554975,"name":"Orbis","country":"DE","coord":{"lon":8,"lat":49.700001}},
{"_id":2810716,"name":"Wertheim","country":"DE","coord":{"lon":9.50944,"lat":49.7575}},
{"_id":2893646,"name":"Kaltenbach","country":"DE","coord":{"lon":7.44804,"lat":50.971859}},
{"_id":2898980,"name":"Horm","country":"DE","coord":{"lon":6.43333,"lat":50.75}},
{"_id":2844600,"name":"Röst","country":"DE","coord":{"lon":9.25,"lat":54.133331}},
{"_id":2873270,"name":"Markwaldsiedlung","country":"DE","coord":{"lon":8.96667,"lat":50.166672}},
{"_id":3247441,"name":"Kreis Borken","country":"DE","coord":{"lon":6.9225,"lat":51.957779}},
{"_id":6553090,"name":"Raesfeld","country":"DE","coord":{"lon":6.85,"lat":51.766701}},
{"_id":2807184,"name":"Witzenhausen","country":"DE","coord":{"lon":9.86667,"lat":51.333328}},
{"_id":7284171,"name":"Weststadt","country":"DE","coord":{"lon":11.39565,"lat":53.63472}},
{"_id":2941605,"name":"Burach","country":"DE","coord":{"lon":9.63333,"lat":47.799999}},
{"_id":2958533,"name":"Alfeld","country":"DE","coord":{"lon":9.81989,"lat":51.983822}},
{"_id":2953089,"name":"Balingen","country":"DE","coord":{"lon":8.85464,"lat":48.275249}},
{"_id":2874230,"name":"Maintal","country":"DE","coord":{"lon":8.83333,"lat":50.150002}},
{"_id":2864820,"name":"Neu Isenburg","country":"DE","coord":{"lon":8.7,"lat":50.049999}},
{"_id":2806142,"name":"Worms","country":"DE","coord":{"lon":8.35972,"lat":49.635559}},
{"_id":2950877,"name":"Berchtesgadener Land","country":"DE","coord":{"lon":12.88361,"lat":47.73222}},
{"_id":2906121,"name":"Herford","country":"DE","coord":{"lon":8.68333,"lat":52.133331}},
{"_id":2947421,"name":"Bocholt","country":"DE","coord":{"lon":6.6,"lat":51.833328}},
{"_id":3220738,"name":"Landkreis Heidenheim","country":"DE","coord":{"lon":10.17,"lat":48.68417}},
{"_id":6555569,"name":"Hermaringen","country":"DE","coord":{"lon":10.2667,"lat":48.599998}},
{"_id":2905954,"name":"Hermaringen","country":"DE","coord":{"lon":10.26065,"lat":48.59544}},
{"_id":3247907,"name":"Landkreis Germersheim","country":"DE","coord":{"lon":8.29889,"lat":49.14333}},
{"_id":6555021,"name":"Schwegenheim","country":"DE","coord":{"lon":8.32,"lat":49.2733}},
{"_id":2959285,"name":"Aha","country":"DE","coord":{"lon":10.75,"lat":49.099998}},
{"_id":6558503,"name":"Murr","country":"DE","coord":{"lon":9.25877,"lat":48.962189}},
{"_id":2872028,"name":"Melsungen","country":"DE","coord":{"lon":9.55,"lat":51.133331}},
{"_id":2930596,"name":"Emden","country":"DE","coord":{"lon":7.21667,"lat":53.366669}},
{"_id":2894253,"name":"Kagers","country":"DE","coord":{"lon":12.56667,"lat":48.883331}},
{"_id":2953552,"name":"Bad Bentheim","country":"DE","coord":{"lon":7.16667,"lat":52.316669}},
{"_id":2944796,"name":"Landkreis Breisgau-Hochschwarzwald","country":"DE","coord":{"lon":7.96611,"lat":47.96806}},
{"_id":6555762,"name":"Umkirch","country":"DE","coord":{"lon":7.7642,"lat":48.0312}},
{"_id":6555157,"name":"Waldmohr","country":"DE","coord":{"lon":7.3301,"lat":49.381802}},
{"_id":6557422,"name":"Elze, Stadt","country":"DE","coord":{"lon":9.7259,"lat":52.115601}},
{"_id":3220818,"name":"Landkreis Dachau","country":"DE","coord":{"lon":11.37111,"lat":48.334438}},
{"_id":6556136,"name":"Karlsfeld","country":"DE","coord":{"lon":11.45473,"lat":48.229172}},
{"_id":2859380,"name":"Ober-Ramstadt","country":"DE","coord":{"lon":8.75194,"lat":49.833611}},
{"_id":2807240,"name":"Wittlich","country":"DE","coord":{"lon":6.88333,"lat":49.98333}},
{"_id":2917412,"name":"Griesheim","country":"DE","coord":{"lon":8.57528,"lat":49.862782}},
{"_id":2871039,"name":"Minden","country":"DE","coord":{"lon":8.91667,"lat":52.283329}},
{"_id":2907201,"name":"Heinsberg","country":"DE","coord":{"lon":6.08333,"lat":51.066669}},
{"_id":2873289,"name":"Marktredwitz","country":"DE","coord":{"lon":12.08111,"lat":50.005001}},
{"_id":2940512,"name":"Butzbach","country":"DE","coord":{"lon":8.67122,"lat":50.433949}},
{"_id":2810808,"name":"Wernigerode","country":"DE","coord":{"lon":10.78333,"lat":51.833328}},
{"_id":2866135,"name":"Neubrandenburg","country":"DE","coord":{"lon":13.26667,"lat":53.566669}},
{"_id":2882737,"name":"Kühn","country":"DE","coord":{"lon":13.55155,"lat":48.711182}},
{"_id":2853907,"name":"Philippsburg","country":"DE","coord":{"lon":8.45639,"lat":49.235828}},
{"_id":2913275,"name":"Gypsweiler","country":"DE","coord":{"lon":10.1324,"lat":48.964539}},
{"_id":2826287,"name":"Stralsund","country":"DE","coord":{"lon":13.0818,"lat":54.309109}},
{"_id":2920236,"name":"Gladbeck","country":"DE","coord":{"lon":6.98333,"lat":51.566669}},
{"_id":2823567,"name":"Teltow","country":"DE","coord":{"lon":13.26667,"lat":52.400002}},
{"_id":2872582,"name":"Meckenheim","country":"DE","coord":{"lon":7.01667,"lat":50.633331}},
{"_id":3221129,"name":"Kreis Herford","country":"DE","coord":{"lon":8.66194,"lat":52.189442}},
{"_id":2904886,"name":"Hiddenhausen","country":"DE","coord":{"lon":8.61667,"lat":52.166672}},
{"_id":2939945,"name":"Coesfeld","country":"DE","coord":{"lon":7.15,"lat":51.933331}},
{"_id":2928665,"name":"Ettendorf","country":"DE","coord":{"lon":12.65,"lat":47.883331}},
{"_id":2931804,"name":"Einbeck","country":"DE","coord":{"lon":9.86667,"lat":51.816669}},
{"_id":2919645,"name":"Göbel","country":"DE","coord":{"lon":12.01667,"lat":52.066669}},
{"_id":2831924,"name":"Singen","country":"DE","coord":{"lon":8.8403,"lat":47.75935}},
{"_id":2881646,"name":"Landau in der Pfalz","country":"DE","coord":{"lon":8.11333,"lat":49.2075}},
{"_id":2817576,"name":"Verl","country":"DE","coord":{"lon":8.51667,"lat":51.883331}},
{"_id":2898004,"name":"Hugelsheim","country":"DE","coord":{"lon":8.11667,"lat":48.799999}},
{"_id":2810430,"name":"Westerbönen","country":"DE","coord":{"lon":7.76667,"lat":51.599998}},
{"_id":2864713,"name":"Neukleff","country":"DE","coord":{"lon":7.53333,"lat":50.950001}},
{"_id":2826766,"name":"Stockhausen","country":"DE","coord":{"lon":8.32403,"lat":50.545181}},
{"_id":2958141,"name":"Alsdorf","country":"DE","coord":{"lon":6.16667,"lat":50.883331}},
{"_id":2848918,"name":"Reiff","country":"DE","coord":{"lon":6.2,"lat":50.099998}},
{"_id":2925789,"name":"Forstenhäuser","country":"DE","coord":{"lon":9.86667,"lat":47.583328}},
{"_id":2860360,"name":"Oberheldenstein","country":"DE","coord":{"lon":12.36667,"lat":48.25}},
{"_id":2955394,"name":"Artern","country":"DE","coord":{"lon":11.3,"lat":51.366669}},
{"_id":2903884,"name":"Hintlaber","country":"DE","coord":{"lon":11.96667,"lat":48.666672}},
{"_id":2951206,"name":"Bellheim","country":"DE","coord":{"lon":8.27944,"lat":49.19833}},
{"_id":2810612,"name":"Wesseling","country":"DE","coord":{"lon":6.98333,"lat":50.833328}},
{"_id":2948147,"name":"Bitz","country":"DE","coord":{"lon":9.09144,"lat":48.243999}},
{"_id":2851446,"name":"Quellental","country":"DE","coord":{"lon":9.8,"lat":53.650002}},
{"_id":2954211,"name":"Auf Sirrenberg","country":"DE","coord":{"lon":7.25,"lat":51.349998}},
{"_id":2906194,"name":"Herbrechtingen","country":"DE","coord":{"lon":10.176,"lat":48.621731}},
{"_id":2954439,"name":"Auf dem Sande","country":"DE","coord":{"lon":8.2,"lat":53.066669}},
{"_id":2821779,"name":"Tornesch","country":"DE","coord":{"lon":9.71667,"lat":53.700001}},
{"_id":2937945,"name":"Deterberg","country":"DE","coord":{"lon":7.35,"lat":51.299999}},
{"_id":2866280,"name":"Neu-Anspach","country":"DE","coord":{"lon":8.5,"lat":50.316669}},
{"_id":2844062,"name":"Rothenburg","country":"DE","coord":{"lon":14.96667,"lat":51.333328}},
{"_id":2955421,"name":"Bad Arolsen","country":"DE","coord":{"lon":9.01445,"lat":51.379822}},
{"_id":2924585,"name":"Friedrichshafen","country":"DE","coord":{"lon":9.48333,"lat":47.650002}},
{"_id":2956715,"name":"Alzenau in Unterfranken","country":"DE","coord":{"lon":9.06667,"lat":50.083328}},
{"_id":2938376,"name":"Delitzsch","country":"DE","coord":{"lon":12.35,"lat":51.533329}},
{"_id":2850887,"name":"Rahden","country":"DE","coord":{"lon":8.61667,"lat":52.433331}},
{"_id":2810919,"name":"Werdohl","country":"DE","coord":{"lon":7.76667,"lat":51.26667}},
{"_id":2908032,"name":"Heide","country":"DE","coord":{"lon":9.1,"lat":54.200001}},
{"_id":6553201,"name":"Niedernhausen","country":"DE","coord":{"lon":8.31667,"lat":50.150002}},
{"_id":2863046,"name":"Niedernhausen","country":"DE","coord":{"lon":8.31667,"lat":50.150002}},
{"_id":2825003,"name":"Südlengern","country":"DE","coord":{"lon":8.63333,"lat":52.200001}},
{"_id":2958535,"name":"Alfdorf","country":"DE","coord":{"lon":9.71857,"lat":48.843849}},
{"_id":2900260,"name":"Holsten","country":"DE","coord":{"lon":8.13333,"lat":52.216671}},
{"_id":2852193,"name":"Pressen","country":"DE","coord":{"lon":12.53333,"lat":51.466671}},
{"_id":2892791,"name":"Landkreis Karlsruhe","country":"DE","coord":{"lon":8.53139,"lat":49.07972}},
{"_id":6555613,"name":"Oberderdingen","country":"DE","coord":{"lon":8.80306,"lat":49.065601}},
{"_id":2812174,"name":"Weinheim","country":"DE","coord":{"lon":8.66611,"lat":49.548328}},
{"_id":2871535,"name":"Mettmann","country":"DE","coord":{"lon":6.96667,"lat":51.25}},
{"_id":2920834,"name":"Geseke","country":"DE","coord":{"lon":8.51667,"lat":51.650002}},
{"_id":2890328,"name":"Kirchzarten","country":"DE","coord":{"lon":7.95,"lat":47.966671}},
{"_id":2873369,"name":"Markgroningen","country":"DE","coord":{"lon":9.08059,"lat":48.90493}},
{"_id":6555772,"name":"Teningen","country":"DE","coord":{"lon":7.81667,"lat":48.133301}},
{"_id":2946977,"name":"Bohlen","country":"DE","coord":{"lon":8.75,"lat":52.333328}},
{"_id":2864005,"name":"Neustrelitz","country":"DE","coord":{"lon":13.08333,"lat":53.366669}},
{"_id":2959821,"name":"Ablaß","country":"DE","coord":{"lon":12.95,"lat":51.23333}},
{"_id":2824938,"name":"Suhler Neundorf","country":"DE","coord":{"lon":10.7,"lat":50.599998}},
{"_id":2809835,"name":"Weyhe","country":"DE","coord":{"lon":8.66667,"lat":52.966671}},
{"_id":2944200,"name":"Bretten","country":"DE","coord":{"lon":8.70278,"lat":49.039169}},
{"_id":2810855,"name":"Wermelskirchen","country":"DE","coord":{"lon":7.21667,"lat":51.150002}},
{"_id":2905826,"name":"Herrenberg","country":"DE","coord":{"lon":8.86648,"lat":48.59523}},
{"_id":2936267,"name":"Donaueschingen","country":"DE","coord":{"lon":8.5,"lat":47.950001}},
{"_id":2954602,"name":"Auerbach","country":"DE","coord":{"lon":12.4,"lat":50.51667}},
{"_id":2861934,"name":"Nordhorn","country":"DE","coord":{"lon":7.08333,"lat":52.433331}},
{"_id":2863534,"name":"Niederdollendorf","country":"DE","coord":{"lon":7.18333,"lat":50.683331}},
{"_id":2864435,"name":"Neunkirchen","country":"DE","coord":{"lon":7.18333,"lat":49.349998}},
{"_id":2892648,"name":"Karstadt","country":"DE","coord":{"lon":11.75,"lat":53.150002}},
{"_id":6555572,"name":"Sontheim an der Brenz","country":"DE","coord":{"lon":10.29114,"lat":48.552181}},
{"_id":2907414,"name":"Heimbuchshöfe","country":"DE","coord":{"lon":9.7,"lat":50.48333}},
{"_id":2929831,"name":"Eppingen","country":"DE","coord":{"lon":8.91028,"lat":49.13694}},
{"_id":2815651,"name":"Wachtendonk","country":"DE","coord":{"lon":6.33894,"lat":51.409161}},
{"_id":2812220,"name":"Weine","country":"DE","coord":{"lon":8.53333,"lat":51.533329}},
{"_id":2886179,"name":"Kolonie Harenberg","country":"DE","coord":{"lon":9.63333,"lat":52.383331}},
{"_id":3221024,"name":"Landkreis Diepholz","country":"DE","coord":{"lon":8.73417,"lat":52.749168}},
{"_id":6552462,"name":"Stuhr","country":"DE","coord":{"lon":8.7656,"lat":53.020279}},
{"_id":2905929,"name":"Hermeskeil","country":"DE","coord":{"lon":6.95,"lat":49.650002}},
{"_id":6554265,"name":"Salz","country":"DE","coord":{"lon":7.96667,"lat":50.5}},
{"_id":2957773,"name":"Altenburg","country":"DE","coord":{"lon":12.45,"lat":50.98333}},
{"_id":2851077,"name":"Radebeul","country":"DE","coord":{"lon":13.66047,"lat":51.106541}},
{"_id":2924837,"name":"Frickenhausen","country":"DE","coord":{"lon":9.36005,"lat":48.593529}},
{"_id":6552656,"name":"Welle","country":"DE","coord":{"lon":9.8053,"lat":53.230202}},
{"_id":6431302,"name":"Garons","country":"FR","coord":{"lon":4.41667,"lat":43.76667}},
{"_id":3016595,"name":"Garons","country":"FR","coord":{"lon":4.42753,"lat":43.7686}},
{"_id":6451497,"name":"Hyères","country":"FR","coord":{"lon":6.11667,"lat":43.116669}},
{"_id":3003043,"name":"Le Palivestre","country":"FR","coord":{"lon":6.15,"lat":43.099998}},
{"_id":6441085,"name":"Entzheim","country":"FR","coord":{"lon":7.63333,"lat":48.533329}},
{"_id":3020116,"name":"Entzheim","country":"FR","coord":{"lon":7.63329,"lat":48.532242}},
{"_id":6449543,"name":"Bétheny","country":"FR","coord":{"lon":4.05,"lat":49.283329}},
{"_id":3033014,"name":"Betheny","country":"FR","coord":{"lon":4.05495,"lat":49.284981}},
{"_id":3033789,"name":"Territoire de Belfort","country":"FR","coord":{"lon":6.88843,"lat":47.63578}},
{"_id":3033790,"name":"Arrondissement de Belfort","country":"FR","coord":{"lon":6.91667,"lat":47.666672}},
{"_id":6613475,"name":"Fontaine","country":"FR","coord":{"lon":7,"lat":47.666672}},
{"_id":3018089,"name":"Fontaine","country":"FR","coord":{"lon":6.99822,"lat":47.659569}},
{"_id":2990998,"name":"Arrondissement de Nancy","country":"FR","coord":{"lon":6.16667,"lat":48.666672}},
{"_id":6436594,"name":"Essey-lès-Nancy","country":"FR","coord":{"lon":6.23333,"lat":48.700001}},
{"_id":3019607,"name":"Essey-les-Nancy","country":"FR","coord":{"lon":6.22425,"lat":48.70179}},
{"_id":6617145,"name":"Marly","country":"FR","coord":{"lon":6.1505,"lat":49.060799}},
{"_id":2995649,"name":"Marly","country":"FR","coord":{"lon":6.15,"lat":49.066669}},
{"_id":6428792,"name":"Ouges","country":"FR","coord":{"lon":5.06667,"lat":47.26667}},
{"_id":2989036,"name":"Ouges","country":"FR","coord":{"lon":5.07395,"lat":47.261639}},
{"_id":6434478,"name":"Montoir-de-Bretagne","country":"FR","coord":{"lon":-2.15,"lat":47.333328}},
{"_id":2992206,"name":"Montoir-de-Bretagne","country":"FR","coord":{"lon":-2.15107,"lat":47.33012}},
{"_id":6430976,"name":"Morlaix","country":"FR","coord":{"lon":-3.83333,"lat":48.583328}},
{"_id":2986651,"name":"Ploujean","country":"FR","coord":{"lon":-3.83333,"lat":48.599998}},
{"_id":6429189,"name":"Trémuson","country":"FR","coord":{"lon":-2.85,"lat":48.51667}},
{"_id":2971825,"name":"Tremuson","country":"FR","coord":{"lon":-2.84833,"lat":48.523251}},
{"_id":6449075,"name":"Bouguenais","country":"FR","coord":{"lon":-1.61667,"lat":47.183331}},
{"_id":3026308,"name":"Château-Bougon","country":"FR","coord":{"lon":-1.58333,"lat":47.166672}},
{"_id":6431021,"name":"Pluguffan","country":"FR","coord":{"lon":-4.18333,"lat":47.98333}},
{"_id":2986616,"name":"Pluguffan","country":"FR","coord":{"lon":-4.18333,"lat":47.98333}},
{"_id":6453798,"name":"Lannion","country":"FR","coord":{"lon":-3.46667,"lat":48.73333}},
{"_id":2974780,"name":"Servel","country":"FR","coord":{"lon":-3.48333,"lat":48.75}},
{"_id":6432839,"name":"Saint-Jacques-de-la-Lande","country":"FR","coord":{"lon":-1.71667,"lat":48.066669}},
{"_id":2979415,"name":"Saint-Jacques-de-la-Lande","country":"FR","coord":{"lon":-1.72086,"lat":48.06514}},
{"_id":6452502,"name":"Arnage","country":"FR","coord":{"lon":0.18333,"lat":47.933331}},
{"_id":3000731,"name":"Les Guegilets","country":"FR","coord":{"lon":0.19916,"lat":47.938541}},
{"_id":6613750,"name":"Saint-Servais","country":"FR","coord":{"lon":-4.15,"lat":48.51667}},
{"_id":2976956,"name":"Saint-Servais","country":"FR","coord":{"lon":-4.15,"lat":48.51667}},
{"_id":6451623,"name":"Dompierre-sur-Yon","country":"FR","coord":{"lon":-1.36667,"lat":46.73333}},
{"_id":3021124,"name":"Dompierre-sur-Yon","country":"FR","coord":{"lon":-1.38463,"lat":46.738571}},
{"_id":6437354,"name":"Quéven","country":"FR","coord":{"lon":-3.41667,"lat":47.783329}},
{"_id":2994604,"name":"Méné Guen","country":"FR","coord":{"lon":-3.4416,"lat":47.779961}},
{"_id":6432792,"name":"Pleurtuit","country":"FR","coord":{"lon":-2.06667,"lat":48.583328}},
{"_id":2986757,"name":"Pleurtuit","country":"FR","coord":{"lon":-2.05806,"lat":48.578579}},
{"_id":6435480,"name":"Maupertus-sur-Mer","country":"FR","coord":{"lon":-1.48333,"lat":49.666672}},
{"_id":2995071,"name":"Maupertus-sur-Mer","country":"FR","coord":{"lon":-1.48379,"lat":49.65704}},
{"_id":6448086,"name":"Guipavas","country":"FR","coord":{"lon":-4.4,"lat":48.433331}},
{"_id":3022649,"name":"Créach Burguy","country":"FR","coord":{"lon":-4.42466,"lat":48.433109}},
{"_id":6450035,"name":"Avelin","country":"FR","coord":{"lon":3.08333,"lat":50.533329}},
{"_id":3020167,"name":"Ennetières","country":"FR","coord":{"lon":3.09919,"lat":50.554001}},
{"_id":6454397,"name":"Varennes-Vauzelles","country":"FR","coord":{"lon":3.14037,"lat":47.016781}},
{"_id":2982808,"name":"Rose","country":"FR","coord":{"lon":3.13333,"lat":47}},
{"_id":6452066,"name":"Boissy-l'Aillerie","country":"FR","coord":{"lon":2.0321,"lat":49.0788}},
{"_id":3031911,"name":"Boissy-l'Aillerie","country":"FR","coord":{"lon":2.03058,"lat":49.078651}},
{"_id":6446185,"name":"Paray-Vieille-Poste","country":"FR","coord":{"lon":2.36667,"lat":48.716671}},
{"_id":3005584,"name":"La Vieille Poste","country":"FR","coord":{"lon":2.36667,"lat":48.73333}},
{"_id":6444089,"name":"Toussus-le-Noble","country":"FR","coord":{"lon":2.11667,"lat":48.75}},
{"_id":2972143,"name":"Toussus-le-Noble","country":"FR","coord":{"lon":2.11341,"lat":48.74926}},
{"_id":1413746,"name":"Sawan","country":"PK","coord":{"lon":73.857162,"lat":33.640282}},
{"_id":6438650,"name":"Creil","country":"FR","coord":{"lon":2.48333,"lat":49.26667}},
{"_id":3022610,"name":"Creil","country":"FR","coord":{"lon":2.48477,"lat":49.256721}},
{"_id":3031713,"name":"Bonneuil-en-France","country":"FR","coord":{"lon":2.43154,"lat":48.974461}},
{"_id":6433077,"name":"Parçay-Meslay","country":"FR","coord":{"lon":0.75,"lat":47.433331}},
{"_id":2988576,"name":"Parcay-Meslay","country":"FR","coord":{"lon":0.74847,"lat":47.441952}},
{"_id":6617649,"name":"Franqueville-Saint-Pierre","country":"FR","coord":{"lon":1.1807,"lat":49.401001}},
{"_id":3017325,"name":"Franqueville-Saint-Pierre","country":"FR","coord":{"lon":1.1807,"lat":49.401001}},
{"_id":2974283,"name":"Sommesous","country":"FR","coord":{"lon":4.19946,"lat":48.737801}},
{"_id":6449153,"name":"Boulay-les-Barres","country":"FR","coord":{"lon":1.78333,"lat":47.98333}},
{"_id":3031183,"name":"Boulay-les-Barres","country":"FR","coord":{"lon":1.78243,"lat":47.983898}},
{"_id":3003999,"name":"Le Grand Hameau","country":"FR","coord":{"lon":0.08728,"lat":49.528759}},
{"_id":8062941,"name":"Hemlockl Heights","country":"US","coord":{"lon":-81.207764,"lat":41.732189}},
{"_id":6449342,"name":"Brenoux","country":"FR","coord":{"lon":3.53333,"lat":44.48333}},
{"_id":3030339,"name":"Brenoux","country":"FR","coord":{"lon":3.53264,"lat":44.482929}},
{"_id":6425650,"name":"Tallard","country":"FR","coord":{"lon":6.05,"lat":44.466671}},
{"_id":2973485,"name":"Tallard","country":"FR","coord":{"lon":6.05504,"lat":44.461281}},
{"_id":6447148,"name":"Noves","country":"FR","coord":{"lon":4.9022,"lat":43.876801}},
{"_id":2989935,"name":"Noves","country":"FR","coord":{"lon":4.90248,"lat":43.877361}},
{"_id":3032832,"name":"Arrondissement de Béziers","country":"FR","coord":{"lon":3.08333,"lat":43.5}},
{"_id":6432591,"name":"Portiragnes","country":"FR","coord":{"lon":3.33333,"lat":43.299999}},
{"_id":2985972,"name":"Portiragnes","country":"FR","coord":{"lon":3.33365,"lat":43.3046}},
{"_id":6440997,"name":"Peyrestortes","country":"FR","coord":{"lon":2.85,"lat":42.75}},
{"_id":2987500,"name":"Peyrestortes","country":"FR","coord":{"lon":2.85232,"lat":42.754799}},
{"_id":7433819,"name":"Nekathkumbura","country":"LK","coord":{"lon":80.721298,"lat":7.3029}},
{"_id":6447141,"name":"Marignane","country":"FR","coord":{"lon":5.21667,"lat":43.416672}},
{"_id":2995750,"name":"Marignane","country":"FR","coord":{"lon":5.21453,"lat":43.416039}},
{"_id":6447020,"name":"Carcassonne","country":"FR","coord":{"lon":2.35,"lat":43.216671}},
{"_id":7645152,"name":"Grèzes-Herminis","country":"FR","coord":{"lon":2.28627,"lat":43.221569}},
{"_id":3030758,"name":"Bouthéon","country":"FR","coord":{"lon":4.28798,"lat":45.535358}},
{"_id":6618150,"name":"Mandelieu-la-Napoule","country":"FR","coord":{"lon":6.938,"lat":43.545601}},
{"_id":2999523,"name":"Les Termes","country":"FR","coord":{"lon":6.93333,"lat":43.549999}},
{"_id":6455234,"name":"Bron","country":"FR","coord":{"lon":4.91667,"lat":45.73333}},
{"_id":3029931,"name":"Bron","country":"FR","coord":{"lon":4.91667,"lat":45.73333}},
{"_id":6448600,"name":"Coings","country":"FR","coord":{"lon":1.71667,"lat":46.883331}},
{"_id":3027896,"name":"Céré","country":"FR","coord":{"lon":1.72066,"lat":46.869331}},
{"_id":3005062,"name":"Le Bousquet","country":"FR","coord":{"lon":2.43441,"lat":44.89101}},
{"_id":6433346,"name":"Saint-Hilaire-de-la-Côte","country":"FR","coord":{"lon":5.31667,"lat":45.383331}},
{"_id":3003104,"name":"Le Not","country":"FR","coord":{"lon":5.32654,"lat":45.377209}},
{"_id":3026514,"name":"Arrondissement de Charolles","country":"FR","coord":{"lon":4.25,"lat":46.5}},
{"_id":6442472,"name":"Saint-Yan","country":"FR","coord":{"lon":4.03333,"lat":46.416672}},
{"_id":2976553,"name":"Saint-Yan","country":"FR","coord":{"lon":4.03876,"lat":46.411469}},
{"_id":6612759,"name":"Colombier-Saugnieu","country":"FR","coord":{"lon":5.11667,"lat":45.716671}},
{"_id":2975852,"name":"Saugnieu","country":"FR","coord":{"lon":5.10719,"lat":45.724998}},
{"_id":6454979,"name":"Bourges","country":"FR","coord":{"lon":2.4,"lat":47.083328}},
{"_id":2994845,"name":"Mazières","country":"FR","coord":{"lon":2.4,"lat":47.066669}},
{"_id":6614097,"name":"Aulnat","country":"FR","coord":{"lon":3.16667,"lat":45.799999}},
{"_id":3036154,"name":"Aulnat","country":"FR","coord":{"lon":3.16498,"lat":45.79604}},
{"_id":6456414,"name":"La Motte-Servolex","country":"FR","coord":{"lon":5.88333,"lat":45.599998}},
{"_id":2999109,"name":"Le Tremblay","country":"FR","coord":{"lon":5.86667,"lat":45.633331}},
{"_id":6451862,"name":"Charbuy","country":"FR","coord":{"lon":3.46667,"lat":47.816669}},
{"_id":3025904,"name":"Chaumois","country":"FR","coord":{"lon":3.46462,"lat":47.83062}},
{"_id":3002575,"name":"Le Pont du Travo","country":"FR","coord":{"lon":9.38807,"lat":41.91431}},
{"_id":6616360,"name":"Bastelicaccia","country":"FR","coord":{"lon":8.8289,"lat":41.922001}},
{"_id":6620209,"name":"Bastelicaccia","country":"FR","coord":{"lon":8.8289,"lat":41.922001}},
{"_id":2975930,"name":"Arrondissement de Sartène","country":"FR","coord":{"lon":9.16667,"lat":41.666672}},
{"_id":6616368,"name":"Figari","country":"FR","coord":{"lon":9.1295,"lat":41.488201}},
{"_id":2986577,"name":"Poggiale","country":"FR","coord":{"lon":9.09531,"lat":41.51902}},
{"_id":5845279,"name":"Chatham","country":"US","coord":{"lon":-134.943604,"lat":57.515282}},
{"_id":6431167,"name":"Lucciana","country":"FR","coord":{"lon":9.4175,"lat":42.5457}},
{"_id":2972416,"name":"Torre","country":"FR","coord":{"lon":9.45566,"lat":42.532162}},
{"_id":6458647,"name":"Marcé","country":"FR","coord":{"lon":-0.31667,"lat":47.583328}},
{"_id":2996061,"name":"Marcé","country":"FR","coord":{"lon":-0.32461,"lat":47.580021}},
{"_id":6437926,"name":"Vigny","country":"FR","coord":{"lon":6.25,"lat":48.966671}},
{"_id":2969084,"name":"Vigny","country":"FR","coord":{"lon":6.2484,"lat":48.967911}},
{"_id":6434371,"name":"Loudes","country":"FR","coord":{"lon":3.75,"lat":45.083328}},
{"_id":2985612,"name":"Pralhac","country":"FR","coord":{"lon":3.76464,"lat":45.08643}},
{"_id":6424399,"name":"Megève","country":"FR","coord":{"lon":6.61667,"lat":45.866669}},
{"_id":2986951,"name":"Plaine-Joux","country":"FR","coord":{"lon":6.63896,"lat":45.826759}},
{"_id":3016144,"name":"Gevry","country":"FR","coord":{"lon":5.44375,"lat":47.039719}},
{"_id":6447051,"name":"Balsac","country":"FR","coord":{"lon":2.45,"lat":44.400002}},
{"_id":3035186,"name":"Balsac","country":"FR","coord":{"lon":2.44515,"lat":44.403568}},
{"_id":6617802,"name":"Le Sequestre","country":"FR","coord":{"lon":2.0996,"lat":43.917301}},
{"_id":6615523,"name":"Le Sequestre","country":"FR","coord":{"lon":2.11804,"lat":43.910759}},
{"_id":6449232,"name":"Cieurac","country":"FR","coord":{"lon":1.5083,"lat":44.367298}},
{"_id":3024964,"name":"Cieurac","country":"FR","coord":{"lon":1.50759,"lat":44.36771}},
{"_id":3007799,"name":"La Négresse","country":"FR","coord":{"lon":-1.54493,"lat":43.460678}},
{"_id":3007713,"name":"Langlade","country":"FR","coord":{"lon":1.47225,"lat":45.135361}},
{"_id":6615967,"name":"Brie","country":"FR","coord":{"lon":0.242,"lat":45.737999}},
{"_id":3030108,"name":"Brie","country":"FR","coord":{"lon":0.24106,"lat":45.738041}},
{"_id":6440811,"name":"Louey","country":"FR","coord":{"lon":0.01667,"lat":43.183331}},
{"_id":2997445,"name":"Louey","country":"FR","coord":{"lon":0.0194,"lat":43.17598}},
{"_id":6448285,"name":"Blagnac","country":"FR","coord":{"lon":1.4,"lat":43.633331}},
{"_id":3032469,"name":"Blagnac","country":"FR","coord":{"lon":1.39399,"lat":43.632759}},
{"_id":6613370,"name":"Vouillé","country":"FR","coord":{"lon":-0.36667,"lat":46.316669}},
{"_id":2967648,"name":"Vouille","country":"FR","coord":{"lon":-0.36844,"lat":46.315498}},
{"_id":3033695,"name":"Bellegarde","country":"FR","coord":{"lon":1.1772,"lat":45.86834}},
{"_id":6455306,"name":"Biard","country":"FR","coord":{"lon":0.3068,"lat":46.577702}},
{"_id":3032802,"name":"Biard","country":"FR","coord":{"lon":0.30812,"lat":46.578892}},
{"_id":7262207,"name":"Reese Center","country":"US","coord":{"lon":-102.040916,"lat":33.600071}},
{"_id":6447351,"name":"Châteaubernard","country":"FR","coord":{"lon":-0.33333,"lat":45.666672}},
{"_id":3026310,"name":"Chateaubernard","country":"FR","coord":{"lon":-0.33333,"lat":45.666672}},
{"_id":3009936,"name":"La Conne-de-Bergerac","country":"FR","coord":{"lon":0.5185,"lat":44.83173}},
{"_id":3033940,"name":"Béchade","country":"FR","coord":{"lon":-0.66361,"lat":44.861038}},
{"_id":3029161,"name":"Arrondissement de Calais","country":"FR","coord":{"lon":1.83333,"lat":50.916672}},
{"_id":6618361,"name":"Marck","country":"FR","coord":{"lon":1.9511,"lat":50.948101}},
{"_id":3004209,"name":"Le Fort-Vert","country":"FR","coord":{"lon":1.93747,"lat":50.96843}},
{"_id":2521481,"name":"Atogo","country":"ES","coord":{"lon":-16.588249,"lat":28.05982}},
{"_id":6696897,"name":"Playa Honda","country":"ES","coord":{"lon":-13.59936,"lat":28.94627}},
{"_id":2515750,"name":"La Montaña","country":"ES","coord":{"lon":-17.75,"lat":28.633329}},
{"_id":2510675,"name":"Tamaduste","country":"ES","coord":{"lon":-17.894699,"lat":27.822269}},
{"_id":2512461,"name":"Playa de Santiago","country":"ES","coord":{"lon":-17.19824,"lat":28.03009}},
{"_id":2511272,"name":"San Pablo","country":"ES","coord":{"lon":-5.88333,"lat":37.416672}},
{"_id":6362337,"name":"Villanubla","country":"ES","coord":{"lon":-4.83682,"lat":41.700642}},
{"_id":3105310,"name":"Villanubla","country":"ES","coord":{"lon":-4.84173,"lat":41.698769}},
{"_id":6362024,"name":"Manises","country":"ES","coord":{"lon":-0.48747,"lat":39.50386}},
{"_id":2514197,"name":"Manises","country":"ES","coord":{"lon":-0.46349,"lat":39.49139}},
{"_id":3111174,"name":"Sabugueira","country":"ES","coord":{"lon":-8.41667,"lat":42.900002}},
{"_id":3013534,"name":"Hendaye","country":"FR","coord":{"lon":-1.77382,"lat":43.371719}},
{"_id":6325087,"name":"Kosta","country":"ES","coord":{"lon":-1.79128,"lat":43.356628}},
{"_id":6639771,"name":"Nuevo Amatos","country":"ES","coord":{"lon":-5.50681,"lat":40.965061}},
{"_id":3119889,"name":"La Canonja","country":"ES","coord":{"lon":1.18065,"lat":41.121101}},
{"_id":2518039,"name":"El Vivero","country":"ES","coord":{"lon":2.73333,"lat":39.566669}},
{"_id":6360966,"name":"Arahal","country":"ES","coord":{"lon":-5.55492,"lat":37.186352}},
{"_id":2519172,"name":"Cortijo de Palomo","country":"ES","coord":{"lon":-5.63888,"lat":37.151199}},
{"_id":6559643,"name":"Sant Climent","country":"ES","coord":{"lon":4.20874,"lat":39.872059}},
{"_id":2511410,"name":"Sant Climent","country":"ES","coord":{"lon":4.21667,"lat":39.866669}},
{"_id":2514808,"name":"Los Buenos","country":"ES","coord":{"lon":-0.82567,"lat":37.77956}},
{"_id":2515672,"name":"La Parra","country":"ES","coord":{"lon":-6.06693,"lat":36.74622}},
{"_id":7534754,"name":"Sant Jordi","country":"ES","coord":{"lon":1.39664,"lat":38.891171}},
{"_id":6358268,"name":"Alcalá del Obispo","country":"ES","coord":{"lon":-0.27886,"lat":42.082729}},
{"_id":3130613,"name":"Alcala del Obispo","country":"ES","coord":{"lon":-0.2912,"lat":42.077301}},
{"_id":3130308,"name":"Almeiras","country":"ES","coord":{"lon":-8.36667,"lat":43.299999}},
{"_id":6615397,"name":"Bilbao Airport","country":"ES","coord":{"lon":-2.90657,"lat":43.30513}},
{"_id":2514273,"name":"Majaneque","country":"ES","coord":{"lon":-4.86667,"lat":37.833328}},
{"_id":3115637,"name":"Navalón","country":"ES","coord":{"lon":-6.03008,"lat":43.573521}},
{"_id":2518736,"name":"El Altet","country":"ES","coord":{"lon":-0.5397,"lat":38.272991}},
{"_id":2515616,"name":"La Pulgosa","country":"ES","coord":{"lon":-1.8596,"lat":38.95554}},
{"_id":6269531,"name":"Paris 01 Louvre","country":"FR","coord":{"lon":2.3417,"lat":48.8592}},
{"_id":5815135,"name":"Washington","country":"US","coord":{"lon":-120.501472,"lat":47.500118}},
{"_id":5391891,"name":"San Dimas","country":"US","coord":{"lon":-117.806732,"lat":34.106682}},
{"_id":4056099,"name":"Coffee County","country":"US","coord":{"lon":-86.000221,"lat":31.41683}},
{"_id":4151245,"name":"Clay County","country":"US","coord":{"lon":-81.833153,"lat":29.99968}},
{"_id":4155535,"name":"Flagler County","country":"US","coord":{"lon":-81.291451,"lat":29.45859}},
{"_id":4158449,"name":"Hernando County","country":"US","coord":{"lon":-82.458153,"lat":28.541941}},
{"_id":4174301,"name":"Sumter County","country":"US","coord":{"lon":-82.083138,"lat":28.708599}},
{"_id":4196508,"name":"Fulton County","country":"US","coord":{"lon":-84.449928,"lat":33.766769}},
{"_id":4191014,"name":"DeKalb County","country":"US","coord":{"lon":-84.233253,"lat":33.750381}},
{"_id":4255818,"name":"Clark County","country":"US","coord":{"lon":-85.761353,"lat":38.483398}},
{"_id":4310411,"name":"Sylvania","country":"US","coord":{"lon":-85.87413,"lat":38.157009}},
{"_id":4287837,"name":"Clark County","country":"US","coord":{"lon":-84.266602,"lat":37.98341}},
{"_id":4347820,"name":"City of Baltimore","country":"US","coord":{"lon":-76.61219,"lat":39.290379}},
{"_id":7198188,"name":"Cashell Estates","country":"US","coord":{"lon":-77.138702,"lat":39.137199}},
{"_id":4372589,"name":"Wakely Terrace","country":"US","coord":{"lon":-76.334961,"lat":39.525661}},
{"_id":4406835,"name":"Saint Charles County","country":"US","coord":{"lon":-90.733459,"lat":38.76672}},
{"_id":4407084,"name":"City of Saint Louis","country":"US","coord":{"lon":-90.197891,"lat":38.62727}},
{"_id":4422178,"name":"Coahoma County","country":"US","coord":{"lon":-90.567879,"lat":34.217892}},
{"_id":4431425,"name":"Jackson County","country":"US","coord":{"lon":-88.6278,"lat":30.42325}},
{"_id":4481511,"name":"Nash County","country":"US","coord":{"lon":-77.96637,"lat":35.96682}},
{"_id":4475520,"name":"Lee County","country":"US","coord":{"lon":-79.183083,"lat":35.46682}},
{"_id":4527624,"name":"Warren County","country":"US","coord":{"lon":-84.166603,"lat":39.433392}},
{"_id":4534444,"name":"Creek County","country":"US","coord":{"lon":-96.400291,"lat":35.900082}},
{"_id":4592843,"name":"Richland County","country":"US","coord":{"lon":-80.916481,"lat":34.016819}},
{"_id":4735729,"name":"Taylor County","country":"US","coord":{"lon":-99.833702,"lat":32.300129}},
{"_id":4697444,"name":"Hidalgo County","country":"US","coord":{"lon":-98.200287,"lat":26.333679}},
{"_id":4740157,"name":"Washington County","country":"US","coord":{"lon":-96.400238,"lat":30.233549}},
{"_id":4739690,"name":"Walker County","country":"US","coord":{"lon":-95.566887,"lat":30.73353}},
{"_id":4703071,"name":"Kerr County","country":"US","coord":{"lon":-99.300323,"lat":30.050211}},
{"_id":4744106,"name":"City of Alexandria","country":"US","coord":{"lon":-77.046921,"lat":38.80484}},
{"_id":4749005,"name":"City of Bristol","country":"US","coord":{"lon":-82.188469,"lat":36.596489}},
{"_id":4752046,"name":"City of Charlottesville","country":"US","coord":{"lon":-78.476677,"lat":38.029308}},
{"_id":4752215,"name":"City of Chesapeake","country":"US","coord":{"lon":-76.312157,"lat":36.687649}},
{"_id":4753684,"name":"City of Colonial Heights","country":"US","coord":{"lon":-77.410263,"lat":37.244041}},
{"_id":4755298,"name":"City of Danville","country":"US","coord":{"lon":-79.39502,"lat":36.585972}},
{"_id":4758109,"name":"City of Fairfax","country":"US","coord":{"lon":-77.306374,"lat":38.846218}},
{"_id":4760084,"name":"City of Fredericksburg","country":"US","coord":{"lon":-77.460541,"lat":38.303181}},
{"_id":4763237,"name":"City of Harrisonburg","country":"US","coord":{"lon":-78.868919,"lat":38.44957}},
{"_id":4764849,"name":"City of Hopewell","country":"US","coord":{"lon":-77.287201,"lat":37.304321}},
{"_id":4771099,"name":"City of Lynchburg","country":"US","coord":{"lon":-79.14225,"lat":37.41375}},
{"_id":4771426,"name":"City of Manassas","country":"US","coord":{"lon":-77.475273,"lat":38.75095}},
{"_id":4776037,"name":"City of Newport News","country":"US","coord":{"lon":-76.508011,"lat":37.062649}},
{"_id":4776242,"name":"City of Norfolk","country":"US","coord":{"lon":-76.261879,"lat":36.891258}},
{"_id":4778642,"name":"City of Petersburg","country":"US","coord":{"lon":-77.401932,"lat":37.227928}},
{"_id":4780019,"name":"City of Portsmouth","country":"US","coord":{"lon":-76.354668,"lat":36.85487}},
{"_id":4780851,"name":"City of Radford","country":"US","coord":{"lon":-80.576447,"lat":37.13179}},
{"_id":4781756,"name":"City of Richmond","country":"US","coord":{"lon":-77.460258,"lat":37.553761}},
{"_id":4782241,"name":"City of Roanoke","country":"US","coord":{"lon":-79.941429,"lat":37.270969}},
{"_id":4784205,"name":"City of Salem","country":"US","coord":{"lon":-80.054764,"lat":37.293468}},
{"_id":4788160,"name":"City of Suffolk","country":"US","coord":{"lon":-76.608009,"lat":36.708481}},
{"_id":4787467,"name":"City of Staunton","country":"US","coord":{"lon":-79.071701,"lat":38.149578}},
{"_id":4792534,"name":"City of Waynesboro","country":"US","coord":{"lon":-78.889473,"lat":38.06847}},
{"_id":4794134,"name":"City of Winchester","country":"US","coord":{"lon":-78.16333,"lat":39.185661}},
{"_id":5151606,"name":"Cuyahoga County","country":"US","coord":{"lon":-81.666519,"lat":41.433392}},
{"_id":4899519,"name":"Lee County","country":"US","coord":{"lon":-89.283432,"lat":41.750591}},
{"_id":4898722,"name":"Knox County","country":"US","coord":{"lon":-90.200119,"lat":40.933369}},
{"_id":5004681,"name":"Ottawa County","country":"US","coord":{"lon":-86.000603,"lat":42.95002}},
{"_id":4985190,"name":"Bay County","country":"US","coord":{"lon":-84.016647,"lat":43.73336}},
{"_id":5000477,"name":"Macomb County","country":"US","coord":{"lon":-82.949928,"lat":42.700031}},
{"_id":4997130,"name":"Ingham County","country":"US","coord":{"lon":-84.383301,"lat":42.60004}},
{"_id":5009706,"name":"Shiawassee County","country":"US","coord":{"lon":-84.149971,"lat":42.950031}},
{"_id":5128316,"name":"Nassau County","country":"US","coord":{"lon":-73.582901,"lat":40.75066}},
{"_id":6941775,"name":"Kings County","country":"US","coord":{"lon":-73.949577,"lat":40.650101}},
{"_id":5113792,"name":"Cortland County","country":"US","coord":{"lon":-76.082977,"lat":42.600071}},
{"_id":5112738,"name":"City Line","country":"US","coord":{"lon":-73.887077,"lat":40.676208}},
{"_id":5118116,"name":"Fulton County","country":"US","coord":{"lon":-74.449577,"lat":43.116741}},
{"_id":5122534,"name":"Jamestown","country":"US","coord":{"lon":-79.235329,"lat":42.097}},
{"_id":6332485,"name":"Queensbridge Houses","country":"US","coord":{"lon":-73.945,"lat":40.75528}},
{"_id":7250946,"name":"Carnegie Hill","country":"US","coord":{"lon":-73.95472,"lat":40.783329}},
{"_id":5133668,"name":"Rensselaer County","country":"US","coord":{"lon":-73.482887,"lat":42.716751}},
{"_id":5161640,"name":"Mahoning County","country":"US","coord":{"lon":-80.766472,"lat":41.03339}},
{"_id":5151896,"name":"Delaware County","country":"US","coord":{"lon":-83.000183,"lat":40.266731}},
{"_id":5145576,"name":"Allen County","country":"US","coord":{"lon":-84.083282,"lat":40.76672}},
{"_id":5153362,"name":"Erie County","country":"US","coord":{"lon":-82.599899,"lat":41.350052}},
{"_id":5221078,"name":"Bristol County","country":"US","coord":{"lon":-71.271721,"lat":41.71677}},
{"_id":5393068,"name":"Santa Cruz County","country":"US","coord":{"lon":-122.051071,"lat":37.066608}},
{"_id":5391997,"name":"San Francisco County","country":"US","coord":{"lon":-122.45108,"lat":37.76660}},
{"_id":5423573,"name":"Grand Junction","country":"US","coord":{"lon":-108.550652,"lat":39.063869}},
{"_id":5525886,"name":"Maverick County","country":"US","coord":{"lon":-100.350349,"lat":28.76692}},
{"_id":5522430,"name":"Gray County","country":"US","coord":{"lon":-100.802002,"lat":35.416698}},
{"_id":5128638,"name":"New York","country":"US","coord":{"lon":-75.499901,"lat":43.000351}},
{"_id":3175936,"name":"Grandate","country":"IT","coord":{"lon":9.05784,"lat":45.775181}},
{"_id":6539582,"name":"Biella","country":"IT","coord":{"lon":8.05002,"lat":45.55986}},
{"_id":6542288,"name":"Soverato","country":"IT","coord":{"lon":16.54991,"lat":38.684978}},
{"_id":6540662,"name":"Pinerolo","country":"IT","coord":{"lon":7.33312,"lat":44.883942}}]
